{
  "product": "Insulin Glargine",
  "forecast_week": "2024-W02",
  "generated_at": "2026-03-15T20:09:57.222410Z",
  "cities": [
    {
      "city": "Mumbai",
      "lat": 19.076,
      "lng": 72.8777,
      "predicted_units": 802,
      "demand_index": 1.0,
      "demand_level": "high"
    },
    {
      "city": "Pune",
      "lat": 18.5204,
      "lng": 73.8567,
      "predicted_units": 605,
      "demand_index": 0.7445,
      "demand_level": "high"
    },
    {
      "city": "Nagpur",
      "lat": 21.1458,
      "lng": 79.0882,
      "predicted_units": 251,
      "demand_index": 0.2853,
      "demand_level": "low"
    },
    {
      "city": "Thane",
      "lat": 19.2183,
      "lng": 72.9781,
      "predicted_units": 226,
      "demand_index": 0.2529,
      "demand_level": "low"
    },
    {
      "city": "Nashik",
      "lat": 19.9975,
      "lng": 73.7898,
      "predicted_units": 185,
      "demand_index": 0.1997,
      "demand_level": "low"
    },
    {
      "city": "Aurangabad",
      "lat": 19.8762,
      "lng": 75.3433,
      "predicted_units": 163,
      "demand_index": 0.1712,
      "demand_level": "low"
    },
    {
      "city": "Solapur",
      "lat": 17.6599,
      "lng": 75.9064,
      "predicted_units": 74,
      "demand_index": 0.0558,
      "demand_level": "low"
    },
    {
      "city": "Kolhapur",
      "lat": 16.705,
      "lng": 74.2433,
      "predicted_units": 68,
      "demand_index": 0.048,
      "demand_level": "low"
    },
    {
      "city": "Amravati",
      "lat": 20.932,
      "lng": 77.7523,
      "predicted_units": 59,
      "demand_index": 0.0363,
      "demand_level": "low"
    },
    {
      "city": "Jalgaon",
      "lat": 21.0077,
      "lng": 75.5626,
      "predicted_units": 53,
      "demand_index": 0.0285,
      "demand_level": "low"
    },
    {
      "city": "Nanded",
      "lat": 19.1383,
      "lng": 77.321,
      "predicted_units": 52,
      "demand_index": 0.0272,
      "demand_level": "low"
    },
    {
      "city": "Sangli",
      "lat": 16.8524,
      "lng": 74.5815,
      "predicted_units": 48,
      "demand_index": 0.022,
      "demand_level": "low"
    },
    {
      "city": "Ahmednagar",
      "lat": 19.0948,
      "lng": 74.748,
      "predicted_units": 47,
      "demand_index": 0.0208,
      "demand_level": "low"
    },
    {
      "city": "Akola",
      "lat": 20.7002,
      "lng": 77.0082,
      "predicted_units": 44,
      "demand_index": 0.0169,
      "demand_level": "low"
    },
    {
      "city": "Dhule",
      "lat": 20.9042,
      "lng": 74.7749,
      "predicted_units": 39,
      "demand_index": 0.0104,
      "demand_level": "low"
    },
    {
      "city": "Latur",
      "lat": 18.3968,
      "lng": 76.5604,
      "predicted_units": 39,
      "demand_index": 0.0104,
      "demand_level": "low"
    },
    {
      "city": "Chandrapur",
      "lat": 19.9615,
      "lng": 79.2961,
      "predicted_units": 36,
      "demand_index": 0.0065,
      "demand_level": "low"
    },
    {
      "city": "Parbhani",
      "lat": 19.261,
      "lng": 76.7748,
      "predicted_units": 34,
      "demand_index": 0.0039,
      "demand_level": "low"
    },
    {
      "city": "Bid",
      "lat": 18.989,
      "lng": 75.7601,
      "predicted_units": 31,
      "demand_index": 0.0,
      "demand_level": "low"
    },
    {
      "city": "Ichalkaranji",
      "lat": 16.6903,
      "lng": 74.4601,
      "predicted_units": 31,
      "demand_index": 0.0,
      "demand_level": "low"
    }
  ]
}