{
  "product": "Azithromycin",
  "forecast_week": "2024-W03",
  "generated_at": "2026-03-15T20:09:50.710032Z",
  "cities": [
    {
      "city": "Mumbai",
      "lat": 19.076,
      "lng": 72.8777,
      "predicted_units": 1811,
      "demand_index": 1.0,
      "demand_level": "high"
    },
    {
      "city": "Pune",
      "lat": 18.5204,
      "lng": 73.8567,
      "predicted_units": 1383,
      "demand_index": 0.7557,
      "demand_level": "high"
    },
    {
      "city": "Nagpur",
      "lat": 21.1458,
      "lng": 79.0882,
      "predicted_units": 591,
      "demand_index": 0.3037,
      "demand_level": "low"
    },
    {
      "city": "Thane",
      "lat": 19.2183,
      "lng": 72.9781,
      "predicted_units": 513,
      "demand_index": 0.2591,
      "demand_level": "low"
    },
    {
      "city": "Nashik",
      "lat": 19.9975,
      "lng": 73.7898,
      "predicted_units": 426,
      "demand_index": 0.2095,
      "demand_level": "low"
    },
    {
      "city": "Aurangabad",
      "lat": 19.8762,
      "lng": 75.3433,
      "predicted_units": 389,
      "demand_index": 0.1884,
      "demand_level": "low"
    },
    {
      "city": "Solapur",
      "lat": 17.6599,
      "lng": 75.9064,
      "predicted_units": 162,
      "demand_index": 0.0588,
      "demand_level": "low"
    },
    {
      "city": "Kolhapur",
      "lat": 16.705,
      "lng": 74.2433,
      "predicted_units": 151,
      "demand_index": 0.0525,
      "demand_level": "low"
    },
    {
      "city": "Amravati",
      "lat": 20.932,
      "lng": 77.7523,
      "predicted_units": 129,
      "demand_index": 0.04,
      "demand_level": "low"
    },
    {
      "city": "Nanded",
      "lat": 19.1383,
      "lng": 77.321,
      "predicted_units": 121,
      "demand_index": 0.0354,
      "demand_level": "low"
    },
    {
      "city": "Jalgaon",
      "lat": 21.0077,
      "lng": 75.5626,
      "predicted_units": 117,
      "demand_index": 0.0331,
      "demand_level": "low"
    },
    {
      "city": "Sangli",
      "lat": 16.8524,
      "lng": 74.5815,
      "predicted_units": 103,
      "demand_index": 0.0251,
      "demand_level": "low"
    },
    {
      "city": "Ahmednagar",
      "lat": 19.0948,
      "lng": 74.748,
      "predicted_units": 98,
      "demand_index": 0.0223,
      "demand_level": "low"
    },
    {
      "city": "Akola",
      "lat": 20.7002,
      "lng": 77.0082,
      "predicted_units": 91,
      "demand_index": 0.0183,
      "demand_level": "low"
    },
    {
      "city": "Latur",
      "lat": 18.3968,
      "lng": 76.5604,
      "predicted_units": 91,
      "demand_index": 0.0183,
      "demand_level": "low"
    },
    {
      "city": "Dhule",
      "lat": 20.9042,
      "lng": 74.7749,
      "predicted_units": 90,
      "demand_index": 0.0177,
      "demand_level": "low"
    },
    {
      "city": "Parbhani",
      "lat": 19.261,
      "lng": 76.7748,
      "predicted_units": 83,
      "demand_index": 0.0137,
      "demand_level": "low"
    },
    {
      "city": "Chandrapur",
      "lat": 19.9615,
      "lng": 79.2961,
      "predicted_units": 79,
      "demand_index": 0.0114,
      "demand_level": "low"
    },
    {
      "city": "Ichalkaranji",
      "lat": 16.6903,
      "lng": 74.4601,
      "predicted_units": 69,
      "demand_index": 0.0057,
      "demand_level": "low"
    },
    {
      "city": "Bid",
      "lat": 18.989,
      "lng": 75.7601,
      "predicted_units": 59,
      "demand_index": 0.0,
      "demand_level": "low"
    }
  ]
}